[
  {
    "name": "Vườn quốc gia Mũi Cà Mau",
    "lat": 8.675,
    "lon": 104.79166667,
    "province": "Cà Mau",
    "image": "http://commons.wikimedia.org/wiki/Special:FilePath/Mui%20Ca%20Mau%20005.JPG",
    "description": "national park in southern Vietnam",
    "heritage": "http://www.wikidata.org/entity/Q125333"
  },
  {
    "name": "Hoàng thành Thăng Long",
    "lat": 21.0325,
    "lon": 105.83972,
    "province": "Hà Nội",
    "image": "http://commons.wikimedia.org/wiki/Special:FilePath/Main%20Gate%20-%20Citadel%20of%20Hanoi.jpg",
    "description": "quần thể các tòa nhà lịch sử nằm ở trung tâm Hà Nội, Việt Nam",
    "heritage": "http://www.wikidata.org/entity/Q206219"
  },
  {
    "name": "Thánh địa Mỹ Sơn",
    "lat": 15.76324,
    "lon": 108.124446,
    "province": "Đà Nẵng",
    "image": "http://commons.wikimedia.org/wiki/Special:FilePath/2024%20-%20M%E1%BB%B9%20S%C6%A1n%20Sanctuary%20Temple%20E7%20-%20img%2001.jpg",
    "description": "Khu di tích đền đài Ấn Độ giáo",
    "heritage": "http://www.wikidata.org/entity/Q391406"
  },
  {
    "name": "Thánh địa Mỹ Sơn",
    "lat": 15.76324,
    "lon": 108.124446,
    "province": "Đà Nẵng",
    "image": "http://commons.wikimedia.org/wiki/Special:FilePath/M%E1%BB%B9%20S%C6%A1n%20Vietnam%20Temple.jpg",
    "description": "Khu di tích đền đài Ấn Độ giáo",
    "heritage": "http://www.wikidata.org/entity/Q391406"
  },
  {
    "name": "Kinh thành Huế",
    "lat": 16.46972222,
    "lon": 107.57777778,
    "province": "Huế",
    "image": "http://commons.wikimedia.org/wiki/Special:FilePath/Plan%20of%20Great%20Enclosure.JPG",
    "description": "tòa thành ở cố đô Huế, tỉnh Thừa Thiên Huế, Việt Nam",
    "heritage": "http://www.wikidata.org/entity/Q877185"
  },
  {
    "name": "Chùa Thiên Mụ",
    "lat": 16.453599,
    "lon": 107.544812,
    "province": "Huế",
    "image": "http://commons.wikimedia.org/wiki/Special:FilePath/Exit%20gate%20of%20Thi%C3%AAn%20M%E1%BB%A5%20Pagoda.jpg",
    "description": "ngôi chùa nằm ở thành phố Huế, Việt Nam",
    "heritage": "http://www.wikidata.org/entity/Q975568"
  },
  {
    "name": "Chùa Thiên Mụ",
    "lat": 16.453599,
    "lon": 107.544812,
    "province": "Huế",
    "image": "http://commons.wikimedia.org/wiki/Special:FilePath/ThienMuPagoda.jpg",
    "description": "ngôi chùa nằm ở thành phố Huế, Việt Nam",
    "heritage": "http://www.wikidata.org/entity/Q975568"
  },
  {
    "name": "Quần đảo Cát Bà",
    "lat": 20.8,
    "lon": 106.999722222,
    "province": "Hải Phòng",
    "image": "http://commons.wikimedia.org/wiki/Special:FilePath/Cat%20Ba%20Vietnam-Feb06.jpg",
    "description": "quần đảo ở Hải Phòng, Việt Nam",
    "heritage": "http://www.wikidata.org/entity/Q993402"
  },
  {
    "name": "Quần đảo Cát Bà",
    "lat": 20.8,
    "lon": 106.999722222,
    "province": "Hải Phòng",
    "image": "http://commons.wikimedia.org/wiki/Special:FilePath/Cat%20Ba%20Vietnam-Feb06.jpg",
    "description": "quần đảo ở Hải Phòng, Việt Nam",
    "heritage": "http://www.wikidata.org/entity/Q993402"
  },
  {
    "name": "Quần đảo Cát Bà",
    "lat": 20.8,
    "lon": 106.999722222,
    "province": "Hải Phòng",
    "image": "http://commons.wikimedia.org/wiki/Special:FilePath/Cat%20Ba%20Vietnam-Feb06.jpg",
    "description": "quần đảo ở Hải Phòng, Việt Nam",
    "heritage": "http://www.wikidata.org/entity/Q993402"
  },
  {
    "name": "Quần đảo Cát Bà",
    "lat": 20.8,
    "lon": 106.999722222,
    "province": "Hải Phòng",
    "image": "http://commons.wikimedia.org/wiki/Special:FilePath/Cat%20Ba%20Vietnam-Feb06.jpg",
    "description": "quần đảo ở Hải Phòng, Việt Nam",
    "heritage": "http://www.wikidata.org/entity/Q993402"
  },
  {
    "name": "Vườn quốc gia Phong Nha - Kẻ Bàng",
    "lat": 17.533333333,
    "lon": 106.15,
    "province": "Quảng Bình",
    "image": "http://commons.wikimedia.org/wiki/Special:FilePath/Phongnhatourism.jpg",
    "description": "vườn quốc gia thuộc tỉnh Quảng Bình, Việt Nam",
    "heritage": "http://www.wikidata.org/entity/Q23513"
  },
  {
    "name": "Vườn quốc gia Phong Nha - Kẻ Bàng",
    "lat": 17.533333333,
    "lon": 106.15,
    "province": "Quảng Bình",
    "image": "http://commons.wikimedia.org/wiki/Special:FilePath/Phongnhatourism.jpg",
    "description": "vườn quốc gia thuộc tỉnh Quảng Bình, Việt Nam",
    "heritage": "http://www.wikidata.org/entity/Q23513"
  },
  {
    "name": "Hội An",
    "lat": 15.877669444,
    "lon": 108.33265,
    "province": "Quảng Nam",
    "image": "http://commons.wikimedia.org/wiki/Special:FilePath/H%E1%BB%99i%20An%2C%20Ancient%20Town%2C%202020-01%20CN-06.jpg",
    "description": "Thành phố thuộc tỉnh Quảng Nam của Việt Nam",
    "heritage": "http://www.wikidata.org/entity/Q36160"
  },
  {
    "name": "Cây đèn hình người quỳ",
    "lat": 21.025527611,
    "lon": 105.858247194,
    "province": "Hà Nội",
    "image": "http://commons.wikimedia.org/wiki/Special:FilePath/The%20Bronze%20Lamp%20in%20the%20Shape%20of%20a%20Kneeling%20Man%20%28Original%29.jpg",
    "description": "Cây đèn đồng Đông Sơn",
    "heritage": "http://www.wikidata.org/entity/Q102128030"
  },
  {
    "name": "Tháp Vĩnh Hưng",
    "lat": 9.393084009,
    "lon": 105.5781835,
    "province": "Bạc Liêu",
    "image": "http://commons.wikimedia.org/wiki/Special:FilePath/Vinh%20Hung%20tower%2C%20Vinh%20Loi%2C%20Bac%20Lieu.jpg",
    "description": "di tích tại Bạc Liêu",
    "heritage": "http://www.wikidata.org/entity/Q109438230"
  },
  {
    "name": "Chuông Thanh Mai",
    "lat": 21.011,
    "lon": 105.786,
    "province": "Hà Nội",
    "image": "http://commons.wikimedia.org/wiki/Special:FilePath/Bell%20for%20ritual%20use%20%28replica%29%2C%20Thanh%20Mai%20pagoda%2C%20Ha%20Tay%20province%2C%20cast%20in%20798%20AD%2C%20bronze%20-%20National%20Museum%20of%20Vietnamese%20History%20-%20Hanoi%2C%20Vietnam%20-%20DSC05548.JPG",
    "description": "Chuông đồng cổ nhất Việt Nam",
    "heritage": "http://www.wikidata.org/entity/Q110889122"
  },
  {
    "name": "Bia Thủy Môn Đình",
    "lat": 21.845154761,
    "lon": 106.75772978,
    "province": "Lạng Sơn",
    "image": "",
    "description": "Bia đá tại Lạng Sơn",
    "heritage": "http://www.wikidata.org/entity/Q111016718"
  },
  {
    "name": "Bia Thủy Môn Đình",
    "lat": 21.845154761,
    "lon": 106.75772978,
    "province": "Lạng Sơn",
    "image": "",
    "description": "Bia đá tại Lạng Sơn",
    "heritage": "http://www.wikidata.org/entity/Q111016718"
  },
  {
    "name": "Bia Thủy Môn Đình",
    "lat": 21.94960299,
    "lon": 106.7016723,
    "province": "Lạng Sơn",
    "image": "",
    "description": "Bia đá tại Lạng Sơn",
    "heritage": "http://www.wikidata.org/entity/Q111016718"
  },
  {
    "name": "Bia Thủy Môn Đình",
    "lat": 21.94960299,
    "lon": 106.7016723,
    "province": "Lạng Sơn",
    "image": "",
    "description": "Bia đá tại Lạng Sơn",
    "heritage": "http://www.wikidata.org/entity/Q111016718"
  },
  {
    "name": "Chùa Đào Xuyên",
    "lat": 20.9935451,
    "lon": 105.9319483,
    "province": "Hà Nội",
    "image": "",
    "description": "Chùa tại Hà Nội",
    "heritage": "http://www.wikidata.org/entity/Q111020867"
  },
  {
    "name": "Thành bậc lan can Nam Định",
    "lat": 20.424513861,
    "lon": 106.173721019,
    "province": "Nam Định",
    "image": "",
    "description": "thành bậc thời Lý",
    "heritage": "http://www.wikidata.org/entity/Q111144305"
  },
  {
    "name": "Bức phù điêu chạm khắc hình tượng đức Lạc Long Quân và nhân vật về thời kỳ Hùng Vương",
    "lat": 20.895823584,
    "lon": 105.766584815,
    "province": "Hà Nội",
    "image": "http://commons.wikimedia.org/wiki/Special:FilePath/Ph%C3%B9%20%C4%91i%C3%AAu%20Qu%E1%BB%91c%20t%E1%BB%95%20L%E1%BA%A1c%20Long%20Qu%C3%A2n%20t%E1%BA%A1i%20%C4%90%E1%BB%81n%20N%E1%BB%99i%20B%C3%ACnh%20%C4%90%C3%A0.jpg",
    "description": "phù điêu tại Hà Nội",
    "heritage": "http://www.wikidata.org/entity/Q111235509"
  },
  {
    "name": "Đền Trấn Vũ",
    "lat": 21.022324043,
    "lon": 105.901363426,
    "province": "Hà Nội",
    "image": "",
    "description": "Đền thờ Huyền Thiên Trấn Vũ tại Long Biên",
    "heritage": "http://www.wikidata.org/entity/Q111495941"
  },
  {
    "name": "Tượng Huyền Thiên Trấn Vũ",
    "lat": 21.022444219,
    "lon": 105.901438528,
    "province": "Hà Nội",
    "image": "",
    "description": "Tượng đồng thế kỷ 15",
    "heritage": "http://www.wikidata.org/entity/Q111496112"
  },
  {
    "name": "Chùa Khám Lạng",
    "lat": 21.266972362,
    "lon": 106.394619407,
    "province": "Bắc Giang",
    "image": "",
    "description": "Chùa tại Bắc Giang",
    "heritage": "http://www.wikidata.org/entity/Q111515996"
  },
  {
    "name": "Đài thờ Mỹ Sơn A10",
    "lat": 15.762808886,
    "lon": 108.125158802,
    "province": "Quảng Nam",
    "image": "http://commons.wikimedia.org/wiki/Special:FilePath/My%20Son%20A10%20altar%20-%20August%202024%20%281%29.jpg",
    "description": "Đài thờ Chăm tại Thánh địa Mỹ Sơn",
    "heritage": "http://www.wikidata.org/entity/Q130218170"
  },
  {
    "name": "Hoàng đế chi bảo",
    "lat": 21.114037692,
    "lon": 105.953442264,
    "province": "Bắc Ninh",
    "image": "http://commons.wikimedia.org/wiki/Special:FilePath/Ho%C3%A0ng%20%C4%90%E1%BA%BF%20chi%20b%E1%BA%A3o%20%28%E7%9A%87%E5%B8%9D%E4%B9%8B%E5%AF%B6%29.svg",
    "description": "Ấn vàng của Hoàng đế Minh Mạng",
    "heritage": "http://www.wikidata.org/entity/Q131914016"
  },
  {
    "name": "Phố cổ Hội An",
    "lat": 15.877135,
    "lon": 108.328631,
    "province": "Hội An",
    "image": "http://commons.wikimedia.org/wiki/Special:FilePath/Boat%20by%20the%20water%20-%20Hoi%20An%20%2816922189291%29.jpg",
    "description": "đô thị cổ ở Quảng Nam, Việt Nam",
    "heritage": "http://www.wikidata.org/entity/Q5965459"
  },
  {
    "name": "Phố cổ Hội An",
    "lat": 15.877135,
    "lon": 108.328631,
    "province": "Hội An",
    "image": "http://commons.wikimedia.org/wiki/Special:FilePath/Bust%20of%20Kazik%20at%20Hoi%20An%20Ancient%20Town.jpg",
    "description": "đô thị cổ ở Quảng Nam, Việt Nam",
    "heritage": "http://www.wikidata.org/entity/Q5965459"
  },
  {
    "name": "Lăng Đồng Khánh",
    "lat": 16.429444444,
    "lon": 107.568333333,
    "province": "Huế",
    "image": "http://commons.wikimedia.org/wiki/Special:FilePath/Mausoleum%20of%20Emperor%20Dong%20Khanh%20%28Hue%29%20-%20L%C4%83ng%20%C4%90%E1%BB%93ng%20Kh%C3%A1nh%20%282024%20July%29%20-%20img%2020.jpg",
    "description": "",
    "heritage": "http://www.wikidata.org/entity/Q10788196"
  },
  {
    "name": "Văn miếu Huế",
    "lat": 16.4529,
    "lon": 107.539,
    "province": "Huế",
    "image": "http://commons.wikimedia.org/wiki/Special:FilePath/Temple%20Main%20gate.jpg",
    "description": "",
    "heritage": "http://www.wikidata.org/entity/Q10833485"
  },
  {
    "name": "Ngai vua triều Nguyễn",
    "lat": 16.468916483,
    "lon": 107.578476373,
    "province": "Huế",
    "image": "http://commons.wikimedia.org/wiki/Special:FilePath/Ngai%20v%C3%A0ng%20trong%20%C4%91i%E1%BB%87n%20Th%C3%A1i%20H%C3%B2a%281%29.jpg",
    "description": "Ngai vàng của vua triều Nguyễn",
    "heritage": "http://www.wikidata.org/entity/Q131914172"
  },
  {
    "name": "Bộ tượng phật Tam thế chùa Bút Tháp",
    "lat": 21.060830555,
    "lon": 106.0222,
    "province": "Bắc Ninh",
    "image": "http://commons.wikimedia.org/wiki/Special:FilePath/But%20Thap%20Temple%20-%2016.jpg",
    "description": "",
    "heritage": "http://www.wikidata.org/entity/Q131920178"
  },
  {
    "name": "Cột đá Chùa Dạm",
    "lat": 21.143211322,
    "lon": 106.102036326,
    "province": "Bắc Ninh",
    "image": "http://commons.wikimedia.org/wiki/Special:FilePath/C%E1%BB%99t%20%C4%91%C3%A1%20Ch%C3%B9a%20D%E1%BA%A1m.JPG",
    "description": "",
    "heritage": "http://www.wikidata.org/entity/Q135336978"
  },
  {
    "name": "Văn Miếu – Quốc Tử Giám",
    "lat": 21.028611,
    "lon": 105.835556,
    "province": "Hà Nội",
    "image": "http://commons.wikimedia.org/wiki/Special:FilePath/Hanoi%20Temple%20of%20Literature.jpg",
    "description": "quần thể di tích tại Hà Nội",
    "heritage": "http://www.wikidata.org/entity/Q1202019"
  },
  {
    "name": "Văn Miếu – Quốc Tử Giám",
    "lat": 21.028611,
    "lon": 105.835556,
    "province": "Hà Nội",
    "image": "http://commons.wikimedia.org/wiki/Special:FilePath/Hanoi%20Temple%20of%20Literature.jpg",
    "description": "quần thể di tích tại Hà Nội",
    "heritage": "http://www.wikidata.org/entity/Q1202019"
  },
  {
    "name": "Hồ Ba Bể",
    "lat": 22.233333333,
    "lon": 105.566666666,
    "province": "Bắc Kạn",
    "image": "http://commons.wikimedia.org/wiki/Special:FilePath/Babenp%202007%2001%203.jpg",
    "description": "Hồ nước ngọt tự nhiên lớn nhất của Việt Nam, nằm ở tỉnh Bắc Kạn",
    "heritage": "http://www.wikidata.org/entity/Q1328473"
  },
  {
    "name": "Hồ Ba Bể",
    "lat": 22.405278,
    "lon": 105.615278,
    "province": "Bắc Kạn",
    "image": "http://commons.wikimedia.org/wiki/Special:FilePath/Babenp%202007%2001%203.jpg",
    "description": "Hồ nước ngọt tự nhiên lớn nhất của Việt Nam, nằm ở tỉnh Bắc Kạn",
    "heritage": "http://www.wikidata.org/entity/Q1328473"
  },
  {
    "name": "Hồ Ba Bể",
    "lat": 22.41089,
    "lon": 105.6127,
    "province": "Bắc Kạn",
    "image": "http://commons.wikimedia.org/wiki/Special:FilePath/Babenp%202007%2001%203.jpg",
    "description": "Hồ nước ngọt tự nhiên lớn nhất của Việt Nam, nằm ở tỉnh Bắc Kạn",
    "heritage": "http://www.wikidata.org/entity/Q1328473"
  },
  {
    "name": "Vườn quốc gia Cát Tiên",
    "lat": 11.347222222,
    "lon": 107.151388888,
    "province": "Đồng Nai",
    "image": "http://commons.wikimedia.org/wiki/Special:FilePath/Cat%20Tien%20National%20Park%2C%20Vietnam.jpg",
    "description": "vườn quốc gia tại Bình Phước, Việt Nam",
    "heritage": "http://www.wikidata.org/entity/Q1421202"
  },
  {
    "name": "Vườn quốc gia Cát Tiên",
    "lat": 11.347222222,
    "lon": 107.151388888,
    "province": "Đồng Nai",
    "image": "http://commons.wikimedia.org/wiki/Special:FilePath/Cat%20Tien%20National%20Park%2C%20Vietnam.jpg",
    "description": "vườn quốc gia tại Bình Phước, Việt Nam",
    "heritage": "http://www.wikidata.org/entity/Q1421202"
  },
  {
    "name": "Vườn quốc gia Cát Tiên",
    "lat": 11.470555555,
    "lon": 107.323888888,
    "province": "Đồng Nai",
    "image": "http://commons.wikimedia.org/wiki/Special:FilePath/Cat%20Tien%20National%20Park%2C%20Vietnam.jpg",
    "description": "vườn quốc gia tại Bình Phước, Việt Nam",
    "heritage": "http://www.wikidata.org/entity/Q1421202"
  },
  {
    "name": "Vườn quốc gia Cát Tiên",
    "lat": 11.470555555,
    "lon": 107.323888888,
    "province": "Đồng Nai",
    "image": "http://commons.wikimedia.org/wiki/Special:FilePath/Cat%20Tien%20National%20Park%2C%20Vietnam.jpg",
    "description": "vườn quốc gia tại Bình Phước, Việt Nam",
    "heritage": "http://www.wikidata.org/entity/Q1421202"
  },
  {
    "name": "Vườn quốc gia Xuân Thủy",
    "lat": 20.23,
    "lon": 106.517,
    "province": "Nam Định",
    "image": "http://commons.wikimedia.org/wiki/Special:FilePath/Landscape%20Xuan%20Thuy%20National%20Park.JPG",
    "description": "national park",
    "heritage": "http://www.wikidata.org/entity/Q1583627"
  },
  {
    "name": "Vườn quốc gia Ba Bể",
    "lat": 22.405277777,
    "lon": 105.615277777,
    "province": "Bắc Kạn",
    "image": "http://commons.wikimedia.org/wiki/Special:FilePath/Ba%20Be%20Lake%206464.jpg",
    "description": "reserve in Bắc Kạn Province, Northeast region of Vietnam",
    "heritage": "http://www.wikidata.org/entity/Q1968747"
  },
  {
    "name": "Vườn quốc gia Ba Bể",
    "lat": 22.405277777,
    "lon": 105.615277777,
    "province": "Bắc Kạn",
    "image": "http://commons.wikimedia.org/wiki/Special:FilePath/Ba%20Be%20Lake%206464.jpg",
    "description": "reserve in Bắc Kạn Province, Northeast region of Vietnam",
    "heritage": "http://www.wikidata.org/entity/Q1968747"
  },
  {
    "name": "Vườn quốc gia Ba Bể",
    "lat": 22.40528,
    "lon": 105.61528,
    "province": "Bắc Kạn",
    "image": "http://commons.wikimedia.org/wiki/Special:FilePath/Ba%20Be%20Lake%206464.jpg",
    "description": "reserve in Bắc Kạn Province, Northeast region of Vietnam",
    "heritage": "http://www.wikidata.org/entity/Q1968747"
  },
  {
    "name": "Vườn quốc gia Ba Bể",
    "lat": 22.40528,
    "lon": 105.61528,
    "province": "Bắc Kạn",
    "image": "http://commons.wikimedia.org/wiki/Special:FilePath/Ba%20Be%20Lake%206464.jpg",
    "description": "reserve in Bắc Kạn Province, Northeast region of Vietnam",
    "heritage": "http://www.wikidata.org/entity/Q1968747"
  },
  {
    "name": "Óc Eo",
    "lat": 10.232944,
    "lon": 105.162994,
    "province": "Thoại Sơn",
    "image": "http://commons.wikimedia.org/wiki/Special:FilePath/Ruins%20of%20Nam%20Linh%20Son%20archaeological%20site%2C%20Oc%20Eo.jpg",
    "description": "Di chỉ khảo cổ nổi tiếng tại An Giang",
    "heritage": "http://www.wikidata.org/entity/Q2344822"
  },
  {
    "name": "Ga Đà Lạt",
    "lat": 11.942,
    "lon": 108.455,
    "province": "Đà Lạt",
    "image": "http://commons.wikimedia.org/wiki/Special:FilePath/Da%20Lat%20train%20station%2037.jpg",
    "description": "railway station in Da Lat, Vietnam",
    "heritage": "http://www.wikidata.org/entity/Q3096348"
  },
  {
    "name": "Hương Sơn",
    "lat": 18.475,
    "lon": 105.329166666,
    "province": "Hà Tĩnh",
    "image": "http://commons.wikimedia.org/wiki/Special:FilePath/T%C3%A2y%20S%C6%A1n%2C%20H%C6%B0%C6%A1ng%20S%C6%A1n%2C%20H%C3%A0%20T%C4%A9nh%2C%20Vi%E1%BB%87t%20Nam.jpg",
    "description": "Huyện thuộc tỉnh Hà Tĩnh",
    "heritage": "http://www.wikidata.org/entity/Q3143381"
  },
  {
    "name": "Ngọc Lũ I",
    "lat": 21.02552762,
    "lon": 105.858247196,
    "province": "Hà Nội",
    "image": "http://commons.wikimedia.org/wiki/Special:FilePath/Ngoc%20Lu.jpg",
    "description": "Trống đồng Đông Sơn",
    "heritage": "http://www.wikidata.org/entity/Q3514747"
  },
  {
    "name": "Hang Con Moong",
    "lat": 20.2875,
    "lon": 105.605,
    "province": "Thanh Hóa",
    "image": "",
    "description": "cave in Vietnam, with long cultural sequence",
    "heritage": "http://www.wikidata.org/entity/Q5157981"
  },
  {
    "name": "Lăng Minh Mạng",
    "lat": 16.387777777,
    "lon": 107.567777777,
    "province": "Huế",
    "image": "http://commons.wikimedia.org/wiki/Special:FilePath/L%C4%83ng%20Minh%20M%E1%BA%A1ng%20-%20Mausoleum%20of%20Emperor%20Minh%20M%E1%BA%A1ng%20%282024%29%20-%20img%2005.jpg",
    "description": "an imperial mausoleum complex in Hué, Vietnam",
    "heritage": "http://www.wikidata.org/entity/Q7481070"
  },
  {
    "name": "Lăng Tự Đức",
    "lat": 16.4325,
    "lon": 107.566,
    "province": "Huế",
    "image": "http://commons.wikimedia.org/wiki/Special:FilePath/TuDucTombeau%2006.jpg",
    "description": "royal tomb of the Nguyễn dynasty in Vietnam",
    "heritage": "http://www.wikidata.org/entity/Q7481171"
  },
  {
    "name": "Bia tiến sĩ Văn Miếu Thăng Long",
    "lat": 21.028611111,
    "lon": 105.835561111,
    "province": "Hà Nội",
    "image": "http://commons.wikimedia.org/wiki/Special:FilePath/Hanoi%20-%20Literaturtempel%200011.JPG",
    "description": "Bia đá tại Văn Miếu - Quốc Tử Giám",
    "heritage": "http://www.wikidata.org/entity/Q7619083"
  },
  {
    "name": "Bia tiến sĩ Văn Miếu Thăng Long",
    "lat": 21.028611111,
    "lon": 105.835561111,
    "province": "Hà Nội",
    "image": "http://commons.wikimedia.org/wiki/Special:FilePath/Hanoi%20-%20Literaturtempel%200011.JPG",
    "description": "Bia đá tại Văn Miếu - Quốc Tử Giám",
    "heritage": "http://www.wikidata.org/entity/Q7619083"
  },
  {
    "name": "Lăng Gia Long",
    "lat": 16.375,
    "lon": 107.596,
    "province": "Huế",
    "image": "http://commons.wikimedia.org/wiki/Special:FilePath/Tombe%20de%20Gia%20Long.JPG",
    "description": "royal tomb of the Nguyễn dynasty in Vietnam",
    "heritage": "http://www.wikidata.org/entity/Q7818615"
  },
  {
    "name": "Lăng Khải Định",
    "lat": 16.3986,
    "lon": 107.588,
    "province": "Huế",
    "image": "http://commons.wikimedia.org/wiki/Special:FilePath/Emperor%20Khai%20Dinh%20in%20Hue%20%2839543600561%29.jpg",
    "description": "Lăng tẩm triều Nguyễn",
    "heritage": "http://www.wikidata.org/entity/Q7818621"
  },
  {
    "name": "Chùa Đọi Sơn",
    "lat": 20.58475,
    "lon": 105.97511,
    "province": "Bắc Ninh",
    "image": "http://commons.wikimedia.org/wiki/Special:FilePath/Female%20dancer%20decorated%20brick%2C%20Long%20Doi%20pagoda%2C%20Duy%20Tien%2C%20Ha%20Nam%2C%201118-1121%20AD%2C%20terracotta%20-%20Vietnam%20National%20Museum%20of%20Fine%20Arts%20-%20Hanoi%2C%20Vietnam%20-%20DSC04768.JPG",
    "description": "Chùa nhà Lý",
    "heritage": "http://www.wikidata.org/entity/Q10748470"
  },
  {
    "name": "Chùa Đọi Sơn",
    "lat": 20.585676143,
    "lon": 105.97516183,
    "province": "Bắc Ninh",
    "image": "http://commons.wikimedia.org/wiki/Special:FilePath/Female%20dancer%20decorated%20brick%2C%20Long%20Doi%20pagoda%2C%20Duy%20Tien%2C%20Ha%20Nam%2C%201118-1121%20AD%2C%20terracotta%20-%20Vietnam%20National%20Museum%20of%20Fine%20Arts%20-%20Hanoi%2C%20Vietnam%20-%20DSC04768.JPG",
    "description": "Chùa nhà Lý",
    "heritage": "http://www.wikidata.org/entity/Q10748470"
  },
  {
    "name": "Chùa Tây Phương",
    "lat": 21.029009,
    "lon": 105.583043,
    "province": "Hà Nội",
    "image": "http://commons.wikimedia.org/wiki/Special:FilePath/Ch%C3%B9a%20T%C3%A2y%20Ph%C6%B0%C6%A1ng%202.JPG",
    "description": "Chùa tại Sơn Tây, Hà Nội",
    "heritage": "http://www.wikidata.org/entity/Q10748567"
  },
  {
    "name": "Chùa Tây Phương",
    "lat": 21.029009,
    "lon": 105.583043,
    "province": "Hà Nội",
    "image": "http://commons.wikimedia.org/wiki/Special:FilePath/Ch%C3%B9a%20T%C3%A2y%20Ph%C6%B0%C6%A1ng%202.JPG",
    "description": "Chùa tại Sơn Tây, Hà Nội",
    "heritage": "http://www.wikidata.org/entity/Q10748567"
  },
  {
    "name": "Trống đồng Hoàng Hạ",
    "lat": 21.025527619,
    "lon": 105.8582472,
    "province": "Hà Nội",
    "image": "http://commons.wikimedia.org/wiki/Special:FilePath/HoangHaBronzeDrum.jpg",
    "description": "Trống đồng Đông Sơn",
    "heritage": "http://www.wikidata.org/entity/Q10768928"
  },
  {
    "name": "Lam Kinh",
    "lat": 19.92985123,
    "lon": 105.40709385,
    "province": "Thanh Hóa",
    "image": "http://commons.wikimedia.org/wiki/Special:FilePath/Lam%20Kinh.jpg",
    "description": "monument in Lam Sơn, Vietnam",
    "heritage": "http://www.wikidata.org/entity/Q10784247"
  },
  {
    "name": "Lam Kinh",
    "lat": 19.92985123,
    "lon": 105.40709385,
    "province": "Thanh Hóa",
    "image": "http://commons.wikimedia.org/wiki/Special:FilePath/Lam%20Kinh.jpg",
    "description": "monument in Lam Sơn, Vietnam",
    "heritage": "http://www.wikidata.org/entity/Q10784247"
  },
  {
    "name": "Đền Nội Bình Đà",
    "lat": 20.895462748,
    "lon": 105.766284407,
    "province": "Hà Nội",
    "image": "http://commons.wikimedia.org/wiki/Special:FilePath/%C4%90%E1%BB%81n%20N%E1%BB%99i%20B%C3%ACnh%20%C4%90%C3%A0%2C.jpg",
    "description": "Đền thờ Lạc Long Quân",
    "heritage": "http://www.wikidata.org/entity/Q49054330"
  }
]